~VERSION INFORMATION
VERS.                    2.0:  —“¿Õƒ¿–“ LAS -¬≈–—»ﬂ 2.0
WRAP.                    NO:  ŒƒÕ¿ —“–Œ ¿ Õ¿  ¿∆ƒ”ﬁ “Œ◊ ” √À”¡»Õ€
~WELL INFORMATION BLOCK
#Œ¡«Õ.≈ƒ»«Ã   ƒ¿ÕÕ€≈                                       Œœ»—¿Õ»≈ Œ¡Œ«Õ¿◊≈Õ»ﬂ

#-----------  ---------                                     ---------------------

STRT.M           9.00                                       : “Œ◊ ¿ —“¿–“¿
STOP.M        2537.00                                   : “Œ◊ ¿ Œ—“¿ÕŒ¬¿
STEP.M           1.00                                       : Õ≈œ–≈–€¬Õ€… «¿Ã≈–
NULL.         999.25                                        : Õ≈“ œ≈–≈Ã≈ÕÕŒ…
COMP.                                                       : «¿ ¿«◊» 
FLD .         ¡ÓÎ¸¯ÓÂ                                       : Ã≈—“Œ–Œ∆ƒ≈Õ»≈
LOC .         1                                             :  ”—“
WELL.         1234                                          : — ¬¿∆»Õ¿
DATA.         11.7.2010„.                                   : ƒ¿“¿
TIME.         23:01:19                                      : ¬–≈Ãﬂ
~CURVE INFORMATION
#Œ¡«Õ.≈ƒ»«Ã             Œƒ                                 Œœ»—¿Õ»≈ œ≈–≈Ã≈ÕÕŒ…

#-----------  ---------                                     ---------------------

DEPTH.M                                                     : 1 √À”¡»Õ¿
ZENIT.√–¿ƒ                                                  : 3 «≈Õ»“
AZIMUTH.√–¿ƒ                                                : 4 ¿«»Ã”“
~PARAMETER INFORMATION
#Œ¡«Õ.≈ƒ»«Ã   ƒ¿ÕÕ€≈                                       Œœ»—¿Õ»≈ œ≈–≈Ã≈ÕÕŒ…

#-----------  ---------                                     ---------------------

DIAM.M                                                      : ƒ»¿Ã≈“– — ¬¿∆»Õ€
GLKN.M                                                      : √À”¡  ŒÕƒ” “Œ–¿
UGSK.√–¿ƒ                                                   : ”√ŒÀ — ÀŒÕ≈Õ»ﬂ
NPRT.         «ÂÎÂÌ˚È ¿.¿.                                  : Õ¿◊ œ¿–“»»
~A DEPTH    ZENIT  AZIMUTH
# ...
      573     13.26   80.88
      574     13.34   81.10
      575     13.36   80.80
      576     13.33   81.42
      577     13.29   81.62
      578     13.27   81.91
      579     13.30   82.30
      580     13.36   82.48
      581     13.34   82.46
      582     13.39   82.51
      583     13.41   83.01
      584     13.45   83.14
      585     13.50   82.98
      586     13.53   82.94
      587     13.53   83.06
      588     13.57   82.80
      589     13.50   83.32
      590     13.50   83.44
      591     13.52   83.97
      592     13.54   84.27
      593     13.56   84.21
      594     13.51   84.53
      595     13.60   84.73
      596     13.57   84.74
      597     13.50   84.63
      598     13.49   84.55
      599     13.55   84.62
      600     13.60   84.77
      601     13.61   84.77
      602     13.61   85.00
      603     13.64   85.47
      604     13.64   85.66
      605     13.64   85.88
      606     13.67   86.15
      607     13.71   86.39
      608     13.79   86.60
      609     13.91   86.30
      610     13.98   86.44
      611     14.05   86.71
      612     14.12   86.76
      613     14.16   86.71
      614     14.21   86.73
      615     14.25   86.73
      616     14.26   86.83
      617     14.29   87.02
      618     14.31   86.87
      619     14.34   87.02
      620     14.35   87.16
      621     14.37   87.08
      622     14.41   86.97
      623     14.49   86.94
      624     14.53   86.69
      625     14.53   86.62
      626     14.51   86.68
      627     14.52   86.66
      628     14.56   86.52
      629     14.63   86.44
      630     14.59   86.47
      631     14.60   86.31
      632     14.62   86.31
      633     14.59   86.52
      634     14.61   86.57
      635     14.72   86.35
      636     14.71   86.57
      637     14.70   86.41
      638     14.66   86.37
      639     14.66   86.24
      640     14.66   86.22
      641     14.63   86.34
      642     14.58   86.35
      643     14.53   86.33
      644     14.50   86.54
      645     14.46   86.64
      646     14.42   86.81
      647     14.38   87.10
      648     14.41   87.09
      649     14.44   87.84
      650     14.44   87.68
      651     14.41   87.76
      652     14.38   87.81
      653     14.40   87.94
      654     14.41   88.15
      655     14.38   88.25
      656     14.40   88.69
      657     14.51   88.67
      658     14.32   89.38
      659     14.27   89.60
      660     14.32   89.65
      661     14.35   89.90
      662     14.36   90.07
      663     14.30   90.02
      664     14.30   90.24
      665     14.31   90.47
      666     14.29   90.67
      667     14.25   90.77
      668     14.30   90.64
      669     14.29   90.81
      670     14.29   91.12
      671     14.30   91.46
      672     14.26   91.24
      673     14.20   91.09
      674     14.17   91.32
      675     14.15   91.47
      676     14.15   91.79
      677     14.12   91.70
      678     14.05   91.62
      679     13.97   91.66
      680     13.96   91.70
      681     13.99   91.61
      682     13.95   91.49
      683     13.90   92.04
      684     13.86   92.12
      685     13.83   92.44
      686     13.86   92.50
      687     13.90   92.50
      688     13.93   92.62
      689     14.01   92.53
      690     14.02   92.65
      691     14.01   92.72
      692     13.98   92.66
      693     13.96   92.66
      694     13.98   92.59
      695     14.07   92.35
      696     14.05   92.29
      697     14.01   92.22
      698     14.08   92.06
      699     14.11   92.02
      700     14.11   92.09
      701     14.10   92.10
      702     14.09   91.89
      703     14.05   91.86
      704     14.12   91.53
      705     14.13   91.53
      706     14.13   91.50
      707     14.12   91.50
      708     14.08   91.62
      709     14.11   91.65
      710     14.09   91.60
      711     14.03   91.61
      712     14.02   91.63
      713     14.03   91.65
      714     14.02   91.71
      715     14.00   91.78
      716     13.95   91.67
      717     13.94   91.69
      718     13.95   91.76
      719     13.95   91.93
      720     13.93   92.03
      721     13.91   92.02
      722     13.95   92.17
      723     14.02   92.57
      724     14.07   92.31
      725     14.11   92.55
      726     14.12   92.62
      727     14.11   92.44
      728     14.10   92.30
      729     14.11   92.55
      730     14.22   92.61
      731     14.35   92.29
      732     14.41   92.08
      733     14.46   91.96
      734     14.50   91.94
      735     14.48   92.08
      736     14.46   92.13
      737     14.46   92.11
      738     14.45   91.89
      739     14.52   91.80
      740     14.60   91.73
      741     14.65   91.57
      742     14.73   91.43
      743     14.80   91.55
      744     14.74   91.73
      745     14.73   91.51
      746     14.67   91.34
      747     14.64   91.32
      748     14.64   91.20
      749     14.65   91.04
      750     14.62   91.26
      751     14.57   91.46
      752     14.57   91.77
      753     14.61   91.75
      754     14.70   92.06
      755     14.74   92.23
      756     14.75   92.25
      757     14.74   92.30
      758     14.73   92.22
      759     14.74   92.18
      760     14.77   91.95
      761     14.78   92.03
      762     14.78   91.97
      763     14.74   91.94
      764     14.65   92.00
      765     14.57   91.83
      766     14.60   91.78
      767     14.69   92.13
      768     14.66   91.73
      769     14.67   91.52
      770     14.71   91.36
      771     14.74   91.21
      772     14.76   91.22
      773     14.72   91.15
      774     14.81   91.04
      775     14.74   91.11
      776     14.75   90.97
      777     14.76   90.87
      778     14.78   90.81
      779     14.79   90.77
      780     14.76   90.84
      781     14.75   90.69
      782     14.76   90.69
      783     14.74   90.55
      784     14.72   90.38
      785     14.72   90.42
      786     14.72   90.55
      787     14.68   90.57
      788     14.62   90.81
      789     14.56   90.75
      790     14.51   90.47
      791     14.45   90.46
      792     14.42   90.47
      793     14.44   90.55
      794     14.46   90.70
      795     14.46   90.58
      796     14.43   90.73
      797     14.43   90.87
      798     14.48   90.99
      799     14.53   91.02
      800     14.53   90.71
      801     14.53   90.32
      802     14.57   90.44
      803     14.50   90.39
      804     14.54   90.60
      805     14.57   90.58
      806     14.58   90.62
      807     14.56   90.56
      808     14.53   90.49
      809     14.52   90.51
      810     14.55   90.48
      811     14.56   90.16
      812     14.64   90.28
      813     14.58   90.12
      814     14.57   89.97
      815     14.58   89.82
      816     14.60   89.75
      817     14.63   89.84
      818     14.64   89.77
      819     14.62   89.81
      820     14.61   89.68
      821     14.60   89.43
      822     14.61   89.42
      823     14.64   89.60
      824     14.69   89.60
      825     14.69   89.42
      826     14.64   89.80
      827     14.64   89.46
      828     14.66   89.66
      829     14.68   89.71
      830     14.70   89.63
      831     14.69   89.62
      832     14.66   89.63
      833     14.60   89.69
      834     14.59   89.66
      835     14.53   89.79
      836     14.49   89.60
      837     14.43   89.55
      838     14.35   89.62
      839     14.27   89.56
      840     14.23   89.42
      841     14.22   89.21
      842     14.16   89.53
      843     14.16   89.76
      844     14.17   89.61
      845     14.20   89.73
      846     14.22   90.03
      847     14.25   89.88
      848     14.26   89.86
      849     14.23   89.85
      850     14.21   89.87
      851     14.22   89.95
      852     14.22   89.90
      853     14.24   89.67
      854     14.27   89.51
      855     14.26   89.60
      856     14.25   89.75
      857     14.20   89.95
      858     14.28   89.97
