~VERSION INFORMATION
VERS.                    2.0:  —“¿Õƒ¿–“ LAS -¬≈–—»ﬂ 2.0
WRAP.                    NO:  ŒƒÕ¿ —“–Œ ¿ Õ¿  ¿∆ƒ”ﬁ “Œ◊ ” √À”¡»Õ€
~WELL INFORMATION BLOCK
#Œ¡«Õ.≈ƒ»«Ã   ƒ¿ÕÕ€≈                                       Œœ»—¿Õ»≈ Œ¡Œ«Õ¿◊≈Õ»ﬂ

#-----------  ---------                                     ---------------------

STRT.M           9.00                                       : “Œ◊ ¿ —“¿–“¿
STOP.M        2537.00                                   : “Œ◊ ¿ Œ—“¿ÕŒ¬¿
STEP.M           1.00                                       : Õ≈œ–≈–€¬Õ€… «¿Ã≈–
NULL.         999.25                                        : Õ≈“ œ≈–≈Ã≈ÕÕŒ…
COMP.                                                       : «¿ ¿«◊» 
FLD .         ¡ÓÎ¸¯ÓÂ                                       : Ã≈—“Œ–Œ∆ƒ≈Õ»≈
LOC .         1                                             :  ”—“
WELL.         1234                                          : — ¬¿∆»Õ¿
DATA.         11.7.2010„.                                   : ƒ¿“¿
TIME.         23:01:19                                      : ¬–≈Ãﬂ
~CURVE INFORMATION
#Œ¡«Õ.≈ƒ»«Ã             Œƒ                                 Œœ»—¿Õ»≈ œ≈–≈Ã≈ÕÕŒ…

#-----------  ---------                                     ---------------------

DEPTH.M                                                     : 1 √À”¡»Õ¿
ZENIT.√–¿ƒ                                                  : 3 «≈Õ»“
AZIMUTH.√–¿ƒ                                                : 4 ¿«»Ã”“
~PARAMETER INFORMATION
#Œ¡«Õ.≈ƒ»«Ã   ƒ¿ÕÕ€≈                                       Œœ»—¿Õ»≈ œ≈–≈Ã≈ÕÕŒ…

#-----------  ---------                                     ---------------------

DIAM.M                                                      : ƒ»¿Ã≈“– — ¬¿∆»Õ€
GLKN.M                                                      : √À”¡  ŒÕƒ” “Œ–¿
UGSK.√–¿ƒ                                                   : ”√ŒÀ — ÀŒÕ≈Õ»ﬂ
NPRT.         «ÂÎÂÌ˚È ¿.¿.                                  : Õ¿◊ œ¿–“»»
~A DEPTH    ZENIT  AZIMUTH
# ...
     1431     14.42   95.07
     1432     14.40   95.28
     1433     14.50   95.14
     1434     14.49   95.16
     1435     14.47   95.12
     1436     14.51   94.74
     1437     14.49   94.41
     1438     14.49   94.53
     1439     14.53   94.58
     1440     14.55   94.30
     1441     14.55   94.36
     1442     14.56   94.03
     1443     14.59   94.16
     1444     14.74   93.73
     1445     14.60   93.94
     1446     14.50   94.03
     1447     14.44   94.09
     1448     14.39   93.95
     1449     14.36   93.79
     1450     14.36   93.97
     1451     14.38   94.17
     1452     14.42   94.39
     1453     14.51   94.34
     1454     14.56   94.27
     1455     14.52   94.13
     1456     14.52   94.20
     1457     14.53   94.18
     1458     14.59   94.14
     1459     14.65   94.02
     1460     14.65   93.73
     1461     14.69   93.56
     1462     14.74   93.11
     1463     14.77   93.37
     1464     14.77   93.24
     1465     14.76   93.25
     1466     14.74   93.11
     1467     14.74   93.06
     1468     14.78   92.99
     1469     14.82   92.86
     1470     14.86   92.75
     1471     14.87   92.80
     1472     14.86   92.94
     1473     14.91   92.70
     1474     14.90   92.68
     1475     14.89   92.40
     1476     14.89   92.24
     1477     14.91   92.22
     1478     14.93   92.04
     1479     14.92   91.91
     1480     14.88   91.87
     1481     14.86   91.41
     1482     14.90   91.26
     1483     14.88   90.96
     1484     14.92   91.14
     1485     14.88   91.29
     1486     14.78   91.32
     1487     14.74   91.16
     1488     14.77   91.10
     1489     14.83   91.17
     1490     14.86   91.08
     1491     14.84   90.92
     1492     14.90   91.04
     1493     14.94   90.82
     1494     15.00   90.50
     1495     15.03   90.29
     1496     15.02   90.13
     1497     15.05   89.98
     1498     15.10   89.94
     1499     15.11   89.97
     1500     15.11   89.98
     1501     15.08   89.96
     1502     15.07   89.74
     1503     15.07   89.79
     1504     15.09   89.71
     1505     15.10   89.89
     1506     15.10   89.55
     1507     15.07   89.45
     1508     15.07   89.52
     1509     15.06   89.61
     1510     15.05   89.59
     1511     15.05   89.47
     1512     15.02   89.50
     1513     14.96   89.86
     1514     14.86   90.11
     1515     14.74   90.13
     1516     14.56   90.19
     1517     14.47   90.33
     1518     14.39   90.59
     1519     14.28   91.17
     1520     14.23   91.71
     1521     14.23   91.84
     1522     14.26   92.70
     1523     14.27   92.22
     1524     14.25   92.58
     1525     14.28   92.67
     1526     14.29   92.46
     1527     14.32   92.55
     1528     14.34   92.60
     1529     14.32   92.42
     1530     14.28   92.36
     1531     14.23   92.38
     1532     14.26   92.17
     1533     14.29   92.41
     1534     14.28   92.21
     1535     14.25   92.15
     1536     14.27   92.12
     1537     14.31   92.03
     1538     14.31   91.88
     1539     14.31   91.74
     1540     14.29   91.71
     1541     14.28   91.75
     1542     14.31   91.66
     1543     14.18   91.65
     1544     14.22   91.53
     1545     14.24   91.28
     1546     14.24   91.33
     1547     14.23   91.16
     1548     14.22   91.09
     1549     14.20   90.79
     1550     14.20   90.76
     1551     14.16   90.97
     1552     14.10   90.65
     1553     14.07   90.45
     1554     14.05   90.38
     1555     14.06   90.69
     1556     14.11   90.48
     1557     14.17   91.05
     1558     14.18   90.98
     1559     14.20   91.38
     1560     14.22   91.38
     1561     14.26   91.69
     1562     14.29   91.97
     1563     14.29   92.54
     1564     14.34   93.36
     1565     14.39   93.96
     1566     14.45   94.49
     1567     14.47   94.80
     1568     14.48   95.34
     1569     14.49   95.71
     1570     14.49   95.95
     1571     14.47   96.23
     1572     14.45   96.51
     1573     14.43   97.01
     1574     14.43   97.09
     1575     14.51   97.16
     1576     14.51   97.22
     1577     14.49   97.20
     1578     14.42   96.94
     1579     14.42   97.10
     1580     14.35   97.27
     1581     14.35   97.35
     1582     14.42   97.26
     1583     14.45   97.18
     1584     14.43   97.29
     1585     14.42   97.39
     1586     14.41   97.33
     1587     14.43   97.27
     1588     14.48   97.18
     1589     14.50   96.98
     1590     14.45   96.87
     1591     14.41   96.92
     1592     14.42   96.90
     1593     14.38   96.70
     1594     14.41   96.93
     1595     14.41   97.01
     1596     14.41   96.93
     1597     14.41   96.90
     1598     14.37   96.66
     1599     14.33   96.61
     1600     14.30   96.66
     1601     14.26   96.60
     1602     14.25   96.68
     1603     14.25   96.74
     1604     14.27   97.00
     1605     14.28   97.11
     1606     14.34   97.18
     1607     14.34   97.28
     1608     14.31   97.28
     1609     14.31   97.17
     1610     14.31   96.97
     1611     14.29   97.03
     1612     14.30   96.94
     1613     14.32   96.96
     1614     14.33   97.04
     1615     14.29   97.19
     1616     14.20   96.99
     1617     14.21   96.92
     1618     14.24   96.89
     1619     14.26   96.87
     1620     14.26   96.87
     1621     14.25   96.92
     1622     14.26   97.01
     1623     14.34   97.03
     1624     14.43   97.04
     1625     14.43   96.94
     1626     14.47   97.01
     1627     14.58   96.90
     1628     14.47   96.65
     1629     14.50   96.58
     1630     14.53   96.71
     1631     14.56   96.81
     1632     14.54   96.80
     1633     14.50   96.56
     1634     14.53   96.55
     1635     14.57   96.54
     1636     14.58   96.49
     1637     14.60   96.51
     1638     14.60   96.51
     1639     14.61   96.49
     1640     14.63   96.51
     1641     14.64   96.55
     1642     14.62   96.60
     1643     14.62   96.71
     1644     14.58   96.60
     1645     14.57   96.52
     1646     14.58   96.58
     1647     14.54   96.53
     1648     14.52   96.44
     1649     14.52   96.31
     1650     14.53   96.22
     1651     14.53   96.31
     1652     14.52   96.38
     1653     14.52   96.19
     1654     14.54   96.24
     1655     14.56   96.09
     1656     14.57   96.31
     1657     14.60   96.28
     1658     14.62   96.29
     1659     14.66   96.16
     1660     14.66   96.04
     1661     14.61   96.11
     1662     14.55   96.00
     1663     14.53   95.98
     1664     14.54   95.83
     1665     14.54   95.80
     1666     14.54   95.59
     1667     14.52   95.51
     1668     14.51   95.60
     1669     14.49   95.69
     1670     14.45   95.90
     1671     14.42   96.20
     1672     14.41   96.28
     1673     14.44   96.27
     1674     14.49   96.13
     1675     14.51   96.13
     1676     14.52   96.04
     1677     14.59   96.15
     1678     14.65   95.94
     1679     14.70   95.96
     1680     14.69   95.78
     1681     14.70   95.76
     1682     14.70   95.74
     1683     14.72   95.68
     1684     14.77   95.59
     1685     14.78   95.46
     1686     14.80   95.49
     1687     14.77   95.55
     1688     14.78   95.42
     1689     14.78   95.26
     1690     14.78   95.33
     1691     14.83   95.34
     1692     14.87   95.36
     1693     14.88   95.29
     1694     14.88   95.27
     1695     14.89   95.32
     1696     14.89   95.39
     1697     14.90   95.39
     1698     14.92   95.41
     1699     15.03   95.13
     1700     15.09   95.13
     1701     15.04   95.29
     1702     14.96   95.15
     1703     14.90   94.96
     1704     14.90   94.68
     1705     14.83   94.73
     1706     14.81   94.91
     1707     14.81   95.02
     1708     14.87   95.25
     1709     14.95   95.40
     1710     14.97   95.60
     1711     14.98   95.82
     1712     15.02   95.77
     1713     14.99   95.72
     1714     15.05   95.92
     1715     15.07   95.83
     1716     15.09   95.88
