~VERSION INFORMATION
VERS.                    2.0:  —“¿Õƒ¿–“ LAS -¬≈–—»ﬂ 2.0
WRAP.                    NO:  ŒƒÕ¿ —“–Œ ¿ Õ¿  ¿∆ƒ”ﬁ “Œ◊ ” √À”¡»Õ€
~WELL INFORMATION BLOCK
#Œ¡«Õ.≈ƒ»«Ã   ƒ¿ÕÕ€≈                                       Œœ»—¿Õ»≈ Œ¡Œ«Õ¿◊≈Õ»ﬂ

#-----------  ---------                                     ---------------------

STRT.M           9.00                                       : “Œ◊ ¿ —“¿–“¿
STOP.M        2537.00                                   : “Œ◊ ¿ Œ—“¿ÕŒ¬¿
STEP.M           1.00                                       : Õ≈œ–≈–€¬Õ€… «¿Ã≈–
NULL.         999.25                                        : Õ≈“ œ≈–≈Ã≈ÕÕŒ…
COMP.                                                       : «¿ ¿«◊» 
FLD .         ¡ÓÎ¸¯ÓÂ                                       : Ã≈—“Œ–Œ∆ƒ≈Õ»≈
LOC .         1                                             :  ”—“
WELL.         1234                                          : — ¬¿∆»Õ¿
DATA.         11.7.2010„.                                   : ƒ¿“¿
TIME.         23:01:19                                      : ¬–≈Ãﬂ
~CURVE INFORMATION
#Œ¡«Õ.≈ƒ»«Ã             Œƒ                                 Œœ»—¿Õ»≈ œ≈–≈Ã≈ÕÕŒ…

#-----------  ---------                                     ---------------------

DEPTH.M                                                     : 1 √À”¡»Õ¿
ZENIT.√–¿ƒ                                                  : 3 «≈Õ»“
AZIMUTH.√–¿ƒ                                                : 4 ¿«»Ã”“
~PARAMETER INFORMATION
#Œ¡«Õ.≈ƒ»«Ã   ƒ¿ÕÕ€≈                                       Œœ»—¿Õ»≈ œ≈–≈Ã≈ÕÕŒ…

#-----------  ---------                                     ---------------------

DIAM.M                                                      : ƒ»¿Ã≈“– — ¬¿∆»Õ€
GLKN.M                                                      : √À”¡  ŒÕƒ” “Œ–¿
UGSK.√–¿ƒ                                                   : ”√ŒÀ — ÀŒÕ≈Õ»ﬂ
NPRT.         «ÂÎÂÌ˚È ¿.¿.                                  : Õ¿◊ œ¿–“»»
~A DEPTH    ZENIT  AZIMUTH
# ...
      859     14.30   89.77
      860     14.27   89.54
      861     14.26   89.40
      862     14.27   89.30
      863     14.34   89.01
      864     14.37   89.01
      865     14.35   89.05
      866     14.31   89.13
      867     14.30   89.24
      868     14.34   89.23
      869     14.36   89.03
      870     14.35   89.12
      871     14.34   89.05
      872     14.37   89.09
      873     14.41   89.16
      874     14.35   89.27
      875     14.32   89.23
      876     14.35   89.04
      877     14.34   88.99
      878     14.33   89.01
      879     14.31   89.17
      880     14.27   89.26
      881     14.23   89.14
      882     14.19   88.90
      883     14.22   88.75
      884     14.27   88.74
      885     14.13   88.73
      886     14.19   89.08
      887     14.25   89.05
      888     14.30   89.64
      889     14.34   89.82
      890     14.34   89.71
      891     14.34   89.87
      892     14.32   89.76
      893     14.33   90.02
      894     14.39   90.09
      895     14.40   90.03
      896     14.39   89.99
      897     14.37   90.04
      898     14.25   90.14
      899     14.20   90.07
      900     14.26   90.20
      901     14.28   90.24
      902     14.29   90.34
      903     14.32   90.14
      904     14.29   90.45
      905     14.28   90.82
      906     14.34   90.84
      907     14.38   90.86
      908     14.29   90.64
      909     14.37   90.91
      910     14.26   90.77
      911     14.20   91.06
      912     14.20   91.46
      913     14.21   91.58
      914     14.19   91.62
      915     14.14   91.77
      916     14.20   91.56
      917     14.22   91.60
      918     14.19   91.67
      919     14.21   91.75
      920     14.23   91.93
      921     14.20   92.15
      922     14.21   92.07
      923     14.11   91.96
      924     14.04   92.01
      925     13.98   91.95
      926     13.95   92.01
      927     13.96   92.20
      928     14.00   92.31
      929     14.00   92.21
      930     13.86   92.14
      931     13.96   92.26
      932     13.91   92.57
      933     13.89   92.88
      934     13.89   92.85
      935     13.88   92.77
      936     13.88   92.83
      937     13.86   92.70
      938     13.89   93.04
      939     13.91   92.77
      940     13.94   92.72
      941     13.93   92.70
      942     13.95   92.69
      943     14.08   92.69
      944     14.13   92.79
      945     13.75   93.21
      946     14.08   92.50
      947     14.05   93.02
      948     14.06   92.34
      949     14.07   92.20
      950     14.05   92.32
      951     14.02   92.37
      952     14.04   92.39
      953     14.08   92.44
      954     14.03   92.48
      955     13.94   92.51
      956     13.93   92.63
      957     13.96   92.62
      958     13.99   92.54
      959     13.98   92.42
      960     13.97   92.42
      961     13.98   92.55
      962     13.99   92.37
      963     13.98   92.61
      964     13.98   92.61
      965     13.97   92.56
      966     13.97   92.59
      967     13.98   92.59
      968     14.01   92.49
      969     14.02   92.39
      970     14.03   91.89
      971     14.05   91.98
      972     14.00   92.22
      973     13.92   92.28
      974     13.88   92.44
      975     13.87   92.71
      976     13.89   93.06
      977     13.94   93.27
      978     13.96   93.26
      979     13.96   93.39
      980     13.90   93.40
      981     13.80   93.33
      982     13.74   93.35
      983     13.75   93.29
      984     13.73   93.21
      985     13.71   93.26
      986     13.69   93.43
      987     13.71   93.49
      988     13.74   93.39
      989     13.75   93.50
      990     13.78   93.21
      991     13.86   93.19
      992     13.93   93.31
      993     13.97   93.25
      994     13.97   93.01
      995     13.96   92.83
      996     13.98   92.92
      997     13.99   93.07
      998     14.05   92.86
      999     14.11   92.76
     1000     14.18   92.86
     1001     14.26   92.89
     1002     14.35   92.83
     1003     14.44   92.76
     1004     14.51   92.68
     1005     14.55   92.55
     1006     14.65   92.59
     1007     14.67   92.23
     1008     14.69   92.02
     1009     14.69   92.02
     1010     14.68   92.10
     1011     14.70   92.21
     1012     14.75   92.35
     1013     14.78   92.37
     1014     14.82   92.71
     1015     14.87   92.57
     1016     14.92   92.37
     1017     15.01   92.44
     1018     14.97   92.64
     1019     14.93   92.79
     1020     14.97   92.74
     1021     15.03   92.50
     1022     15.03   92.49
     1023     14.99   92.64
     1024     14.98   92.71
     1025     15.00   92.68
     1026     15.03   92.76
     1027     15.05   92.86
     1028     15.03   92.78
     1029     15.04   92.55
     1030     15.00   92.31
     1031     14.97   92.16
     1032     14.93   92.32
     1033     14.98   92.00
     1034     14.93   91.93
     1035     14.90   91.97
     1036     14.89   92.02
     1037     14.90   92.00
     1038     14.91   91.90
     1039     14.91   91.84
     1040     14.99   91.77
     1041     14.99   91.65
     1042     14.92   91.81
     1043     14.85   91.71
     1044     14.81   91.92
     1045     14.75   92.05
     1046     14.70   92.03
     1047     14.71   92.26
     1048     14.77   92.57
     1049     14.82   92.70
     1050     14.87   92.68
     1051     14.85   92.47
     1052     14.80   92.51
     1053     14.79   92.66
     1054     14.79   92.74
     1055     14.76   92.68
     1056     14.71   92.51
     1057     14.71   92.64
     1058     14.77   92.63
     1059     14.87   92.43
     1060     14.92   92.54
     1061     14.98   92.42
     1062     15.01   92.24
     1063     14.97   92.24
     1064     14.93   92.17
     1065     15.00   92.25
     1066     14.93   92.17
     1067     14.95   92.09
     1068     14.93   92.00
     1069     14.93   92.00
     1070     14.92   92.06
     1071     14.92   92.08
     1072     14.93   92.12
     1073     14.90   92.25
     1074     14.90   92.01
     1075     14.88   92.52
     1076     14.88   92.45
     1077     14.83   92.30
     1078     14.76   92.20
     1079     14.70   92.13
     1080     14.64   92.12
     1081     14.61   92.33
     1082     14.67   92.68
     1083     14.72   92.73
     1084     14.72   92.77
     1085     14.72   92.88
     1086     14.72   92.93
     1087     14.74   92.84
     1088     14.78   92.80
     1089     14.85   92.98
     1090     14.97   92.91
     1091     15.00   92.30
     1092     15.09   92.42
     1093     15.10   92.34
     1094     15.07   92.50
     1095     15.09   92.46
     1096     15.12   92.38
     1097     15.14   92.35
     1098     15.16   92.35
     1099     15.20   92.40
     1100     15.26   92.32
     1101     15.21   92.12
     1102     15.15   92.14
     1103     15.22   92.08
     1104     15.22   92.38
     1105     15.21   92.67
     1106     15.24   92.67
     1107     15.22   92.54
     1108     15.22   92.40
     1109     15.17   92.17
     1110     15.14   92.39
     1111     15.13   92.70
     1112     15.14   92.76
     1113     15.24   93.04
     1114     15.32   93.05
     1115     15.34   92.78
     1116     15.39   92.95
     1117     15.41   92.69
     1118     15.43   93.01
     1119     15.40   92.77
     1120     15.41   92.80
     1121     15.49   92.89
     1122     15.55   93.00
     1123     15.62   92.91
     1124     15.69   92.55
     1125     15.64   92.26
     1126     15.78   92.40
     1127     15.69   92.46
     1128     15.69   92.55
     1129     15.73   92.38
     1130     15.74   92.32
     1131     15.75   92.39
     1132     15.77   92.40
     1133     15.77   92.43
     1134     15.79   92.45
     1135     15.66   92.14
     1136     15.67   92.10
     1137     15.65   92.27
     1138     15.65   92.49
     1139     15.70   92.67
     1140     15.76   92.76
     1141     15.79   92.76
     1142     15.80   92.87
     1143     15.83   93.09
     1144     15.87   93.07
