~VERSION INFORMATION
VERS.                    2.0:  —“¿Õƒ¿–“ LAS -¬≈–—»ﬂ 2.0
WRAP.                    NO:  ŒƒÕ¿ —“–Œ ¿ Õ¿  ¿∆ƒ”ﬁ “Œ◊ ” √À”¡»Õ€
~WELL INFORMATION BLOCK
#Œ¡«Õ.≈ƒ»«Ã   ƒ¿ÕÕ€≈                                       Œœ»—¿Õ»≈ Œ¡Œ«Õ¿◊≈Õ»ﬂ

#-----------  ---------                                     ---------------------

STRT.M           9.00                                       : “Œ◊ ¿ —“¿–“¿
STOP.M        2537.00                                   : “Œ◊ ¿ Œ—“¿ÕŒ¬¿
STEP.M           1.00                                       : Õ≈œ–≈–€¬Õ€… «¿Ã≈–
NULL.         999.25                                        : Õ≈“ œ≈–≈Ã≈ÕÕŒ…
COMP.                                                       : «¿ ¿«◊» 
FLD .         ¡ÓÎ¸¯ÓÂ                                       : Ã≈—“Œ–Œ∆ƒ≈Õ»≈
LOC .         1                                             :  ”—“
WELL.         1234                                          : — ¬¿∆»Õ¿
DATA.         11.7.2010„.                                   : ƒ¿“¿
TIME.         23:01:19                                      : ¬–≈Ãﬂ
~CURVE INFORMATION
#Œ¡«Õ.≈ƒ»«Ã             Œƒ                                 Œœ»—¿Õ»≈ œ≈–≈Ã≈ÕÕŒ…

#-----------  ---------                                     ---------------------

DEPTH.M                                                     : 1 √À”¡»Õ¿
ZENIT.√–¿ƒ                                                  : 3 «≈Õ»“
AZIMUTH.√–¿ƒ                                                : 4 ¿«»Ã”“
~PARAMETER INFORMATION
#Œ¡«Õ.≈ƒ»«Ã   ƒ¿ÕÕ€≈                                       Œœ»—¿Õ»≈ œ≈–≈Ã≈ÕÕŒ…

#-----------  ---------                                     ---------------------

DIAM.M                                                      : ƒ»¿Ã≈“– — ¬¿∆»Õ€
GLKN.M                                                      : √À”¡  ŒÕƒ” “Œ–¿
UGSK.√–¿ƒ                                                   : ”√ŒÀ — ÀŒÕ≈Õ»ﬂ
NPRT.         «ÂÎÂÌ˚È ¿.¿.                                  : Õ¿◊ œ¿–“»»
~A DEPTH    ZENIT  AZIMUTH
# ...
     1145     15.93   93.01
     1146     15.98   93.09
     1147     16.03   92.95
     1148     16.09   92.81
     1149     16.15   92.97
     1150     16.15   92.85
     1151     16.17   92.78
     1152     16.14   93.08
     1153     16.24   93.23
     1154     16.35   92.88
     1155     16.43   92.80
     1156     16.42   92.52
     1157     16.41   92.46
     1158     16.39   92.66
     1159     16.38   92.72
     1160     16.39   92.79
     1161     16.43   92.78
     1162     16.45   92.54
     1163     16.45   92.47
     1164     16.45   92.56
     1165     16.43   92.67
     1166     16.36   92.50
     1167     16.37   92.51
     1168     16.32   92.60
     1169     16.28   92.47
     1170     16.28   92.45
     1171     16.27   92.57
     1172     16.17   92.56
     1173     16.06   92.50
     1174     16.05   92.71
     1175     16.03   92.89
     1176     16.03   93.15
     1177     15.98   93.01
     1178     15.96   93.03
     1179     15.93   93.13
     1180     15.90   93.09
     1181     15.87   93.05
     1182     15.86   93.12
     1183     15.81   93.17
     1184     15.72   93.10
     1185     15.75   92.99
     1186     15.79   92.78
     1187     15.81   92.91
     1188     15.76   93.08
     1189     15.67   93.18
     1190     15.63   93.13
     1191     15.61   92.96
     1192     15.57   92.97
     1193     15.55   93.11
     1194     15.57   93.02
     1195     15.59   92.82
     1196     15.47   92.85
     1197     15.50   92.56
     1198     15.48   92.73
     1199     15.50   92.92
     1200     15.49   93.07
     1201     15.40   93.10
     1202     15.33   93.08
     1203     15.29   93.08
     1204     15.25   93.11
     1205     15.26   93.24
     1206     15.26   93.44
     1207     15.16   93.38
     1208     15.16   93.13
     1209     15.03   93.15
     1210     15.07   93.30
     1211     15.08   93.33
     1212     15.05   93.30
     1213     15.04   93.37
     1214     15.03   93.54
     1215     15.02   93.72
     1216     15.07   93.77
     1217     15.05   93.44
     1218     15.03   93.45
     1219     15.00   93.38
     1220     14.99   93.35
     1221     14.96   93.27
     1222     14.89   93.37
     1223     14.84   93.75
     1224     14.90   93.97
     1225     15.05   93.93
     1226     15.12   94.15
     1227     15.14   94.34
     1228     15.09   94.28
     1229     15.10   94.17
     1230     15.16   94.22
     1231     15.20   93.92
     1232     15.23   93.80
     1233     15.27   93.71
     1234     15.26   93.53
     1235     15.22   93.64
     1236     15.25   93.79
     1237     15.30   93.69
     1238     15.35   93.66
     1239     15.35   93.68
     1240     15.34   93.78
     1241     15.34   93.80
     1242     15.34   93.84
     1243     15.35   93.80
     1244     15.34   93.87
     1245     15.30   94.09
     1246     15.24   93.89
     1247     15.11   94.06
     1248     15.08   93.82
     1249     15.04   93.60
     1250     14.98   93.60
     1251     14.91   93.74
     1252     14.79   93.89
     1253     14.63   93.74
     1254     14.49   93.46
     1255     14.35   93.35
     1256     14.17   93.33
     1257     14.08   93.11
     1258     13.95   92.94
     1259     13.96   92.63
     1260     13.94   92.77
     1261     13.86   93.19
     1262     13.80   93.26
     1263     13.81   92.92
     1264     13.84   92.74
     1265     13.85   92.85
     1266     13.87   92.81
     1267     13.80   92.48
     1268     13.86   92.43
     1269     13.80   92.20
     1270     13.79   92.13
     1271     13.79   92.20
     1272     13.79   92.16
     1273     13.82   92.14
     1274     13.86   92.13
     1275     13.86   92.14
     1276     13.87   92.24
     1277     13.90   92.03
     1278     13.97   92.16
     1279     14.02   92.16
     1280     14.03   92.13
     1281     14.10   92.03
     1282     14.16   92.13
     1283     14.20   92.23
     1284     14.18   92.15
     1285     14.13   92.05
     1286     14.15   91.99
     1287     14.19   91.79
     1288     14.20   92.05
     1289     14.22   92.04
     1290     14.24   92.04
     1291     14.26   92.10
     1292     14.30   92.08
     1293     14.31   92.08
     1294     14.32   92.01
     1295     14.32   91.90
     1296     14.31   91.93
     1297     14.33   92.04
     1298     14.38   92.20
     1299     14.40   92.07
     1300     14.43   92.15
     1301     14.42   92.07
     1302     14.43   92.10
     1303     14.47   92.06
     1304     14.50   91.99
     1305     14.54   91.97
     1306     14.56   91.97
     1307     14.59   92.00
     1308     14.60   91.91
     1309     14.59   92.04
     1310     14.59   92.11
     1311     14.65   92.20
     1312     14.66   92.13
     1313     14.66   92.13
     1314     14.64   92.11
     1315     14.61   92.03
     1316     14.61   91.96
     1317     14.61   91.75
     1318     14.60   91.51
     1319     14.56   91.04
     1320     14.57   91.25
     1321     14.55   91.19
     1322     14.53   91.28
     1323     14.47   91.43
     1324     14.44   91.53
     1325     14.47   91.62
     1326     14.55   91.78
     1327     14.67   92.02
     1328     14.79   92.21
     1329     14.87   91.94
     1330     14.89   92.22
     1331     14.87   92.64
     1332     14.82   92.51
     1333     14.80   92.34
     1334     14.80   92.25
     1335     14.81   92.24
     1336     14.80   92.31
     1337     14.78   92.44
     1338     14.81   92.59
     1339     14.82   92.52
     1340     14.87   92.76
     1341     14.86   92.69
     1342     14.87   92.75
     1343     14.88   92.70
     1344     14.87   92.61
     1345     14.87   92.61
     1346     14.87   92.62
     1347     14.89   92.57
     1348     14.89   92.54
     1349     14.91   92.44
     1350     14.90   92.57
     1351     14.94   92.46
     1352     14.98   92.34
     1353     14.97   92.48
     1354     15.02   92.06
     1355     15.02   92.15
     1356     15.03   92.26
     1357     15.00   92.44
     1358     14.97   92.62
     1359     14.98   92.63
     1360     14.98   92.72
     1361     14.95   92.81
     1362     14.92   92.94
     1363     14.86   93.77
     1364     14.78   94.25
     1365     14.72   94.84
     1366     14.70   95.55
     1367     14.69   95.88
     1368     14.65   95.89
     1369     14.61   96.30
     1370     14.58   96.96
     1371     14.56   97.02
     1372     14.54   97.64
     1373     14.52   97.25
     1374     14.57   97.37
     1375     14.61   97.36
     1376     14.63   97.40
     1377     14.64   97.47
     1378     14.63   97.52
     1379     14.61   97.55
     1380     14.63   97.52
     1381     14.65   97.42
     1382     14.65   97.34
     1383     14.65   97.28
     1384     14.66   97.15
     1385     14.58   96.90
     1386     14.51   97.27
     1387     14.44   97.72
     1388     14.43   97.88
     1389     14.47   97.77
     1390     14.51   97.52
     1391     14.56   97.32
     1392     14.56   97.33
     1393     14.61   97.49
     1394     14.64   97.19
     1395     14.69   96.99
     1396     14.68   96.79
     1397     14.70   96.65
     1398     14.69   96.58
     1399     14.66   96.46
     1400     14.69   96.29
     1401     14.74   96.25
     1402     14.76   96.15
     1403     14.68   96.36
     1404     14.75   96.06
     1405     14.69   95.68
     1406     14.68   95.58
     1407     14.69   95.47
     1408     14.73   95.35
     1409     14.80   95.28
     1410     14.78   95.26
     1411     14.66   95.41
     1412     14.86   95.59
     1413     14.61   95.65
     1414     14.57   95.08
     1415     14.48   94.87
     1416     14.46   94.77
     1417     14.42   94.82
     1418     14.38   94.83
     1419     14.38   95.04
     1420     14.39   95.23
     1421     14.38   95.16
     1422     14.34   95.10
     1423     14.39   95.01
     1424     14.39   95.08
     1425     14.37   95.20
     1426     14.34   95.28
     1427     14.33   95.20
     1428     14.35   95.07
     1429     14.39   95.00
     1430     14.41   94.97
