~VERSION INFORMATION
VERS.                    2.0:  —“¿Õƒ¿–“ LAS -¬≈–—»ﬂ 2.0
WRAP.                    NO:  ŒƒÕ¿ —“–Œ ¿ Õ¿  ¿∆ƒ”ﬁ “Œ◊ ” √À”¡»Õ€
~WELL INFORMATION BLOCK
#Œ¡«Õ.≈ƒ»«Ã   ƒ¿ÕÕ€≈                                       Œœ»—¿Õ»≈ Œ¡Œ«Õ¿◊≈Õ»ﬂ

#-----------  ---------                                     ---------------------

STRT.M           9.00                                       : “Œ◊ ¿ —“¿–“¿
STOP.M        2537.00                                   : “Œ◊ ¿ Œ—“¿ÕŒ¬¿
STEP.M           1.00                                       : Õ≈œ–≈–€¬Õ€… «¿Ã≈–
NULL.         999.25                                        : Õ≈“ œ≈–≈Ã≈ÕÕŒ…
COMP.                                                       : «¿ ¿«◊» 
FLD .         ¡ÓÎ¸¯ÓÂ                                       : Ã≈—“Œ–Œ∆ƒ≈Õ»≈
LOC .         1                                             :  ”—“
WELL.         1234                                          : — ¬¿∆»Õ¿
DATA.         11.7.2010„.                                   : ƒ¿“¿
TIME.         23:01:19                                      : ¬–≈Ãﬂ
~CURVE INFORMATION
#Œ¡«Õ.≈ƒ»«Ã             Œƒ                                 Œœ»—¿Õ»≈ œ≈–≈Ã≈ÕÕŒ…

#-----------  ---------                                     ---------------------

DEPTH.M                                                     : 1 √À”¡»Õ¿
ZENIT.√–¿ƒ                                                  : 3 «≈Õ»“
AZIMUTH.√–¿ƒ                                                : 4 ¿«»Ã”“
~PARAMETER INFORMATION
#Œ¡«Õ.≈ƒ»«Ã   ƒ¿ÕÕ€≈                                       Œœ»—¿Õ»≈ œ≈–≈Ã≈ÕÕŒ…

#-----------  ---------                                     ---------------------

DIAM.M                                                      : ƒ»¿Ã≈“– — ¬¿∆»Õ€
GLKN.M                                                      : √À”¡  ŒÕƒ” “Œ–¿
UGSK.√–¿ƒ                                                   : ”√ŒÀ — ÀŒÕ≈Õ»ﬂ
NPRT.         «ÂÎÂÌ˚È ¿.¿.                                  : Õ¿◊ œ¿–“»»
~A DEPTH    ZENIT  AZIMUTH
# ...
     2003     16.93   87.98
     2004     17.03   87.98
     2005     16.94   87.92
     2006     16.81   87.86
     2007     16.63   88.21
     2008     16.33   88.21
     2009     15.98   88.61
     2010     15.84   88.93
     2011     15.83   89.11
     2012     15.43   89.88
     2013     15.25   89.87
     2014     15.08   90.15
     2015     14.89   89.93
     2016     14.78   89.55
     2017     14.75   89.15
     2018     14.77   88.85
     2019     14.74   88.87
     2020     14.65   88.85
     2021     14.53   88.92
     2022     14.49   88.77
     2023     14.47   88.78
     2024     14.46   88.52
     2025     14.47   88.46
     2026     14.45   88.51
     2027     14.46   88.55
     2028     14.45   88.54
     2029     14.39   88.42
     2030     14.35   88.32
     2031     14.38   88.29
     2032     14.38   88.22
     2033     14.37   88.04
     2034     14.43   88.10
     2035     14.44   88.14
     2036     14.42   88.07
     2037     14.42   88.02
     2038     14.44   87.90
     2039     14.46   87.86
     2040     14.44   87.74
     2041     14.44   87.85
     2042     14.39   87.83
     2043     14.34   87.80
     2044     14.35   87.62
     2045     14.39   87.65
     2046     14.37   87.68
     2047     14.34   87.83
     2048     14.32   88.08
     2049     14.33   88.09
     2050     14.35   88.27
     2051     14.39   88.38
     2052     14.41   88.22
     2053     14.39   88.17
     2054     14.40   88.19
     2055     14.38   88.16
     2056     14.41   88.00
     2057     14.39   88.09
     2058     14.40   87.84
     2059     14.39   87.78
     2060     14.37   87.55
     2061     14.40   87.79
     2062     14.46   87.68
     2063     14.53   87.67
     2064     14.52   87.66
     2065     14.49   87.68
     2066     14.41   87.56
     2067     14.41   87.77
     2068     14.43   87.84
     2069     14.39   87.87
     2070     14.36   87.68
     2071     14.38   87.69
     2072     14.40   87.59
     2073     14.43   87.65
     2074     14.37   87.72
     2075     14.44   87.60
     2076     14.45   87.56
     2077     14.39   87.56
     2078     14.37   87.38
     2079     14.42   87.30
     2080     14.45   87.40
     2081     14.40   87.18
     2082     14.35   86.72
     2083     14.32   86.58
     2084     14.31   86.52
     2085     14.27   86.36
     2086     14.21   86.29
     2087     14.17   85.79
     2088     14.13   85.16
     2089     14.10   84.56
     2090     14.09   84.13
     2091     13.99   83.88
     2092     13.79   83.67
     2093     13.67   83.90
     2094     13.61   83.97
     2095     13.60   84.51
     2096     13.66   84.36
     2097     13.70   83.85
     2098     13.65   83.45
     2099     13.61   83.58
     2100     13.68   83.60
     2101     13.64   83.69
     2102     13.63   83.73
     2103     13.63   83.47
     2104     13.67   82.97
     2105     13.69   82.79
     2106     13.74   81.96
     2107     13.82   81.31
     2108     13.89   80.39
     2109     14.00   79.65
     2110     14.10   78.93
     2111     14.17   78.20
     2112     14.25   77.55
     2113     14.31   76.97
     2114     14.35   76.86
     2115     14.37   76.42
     2116     14.37   75.71
     2117     14.40   75.50
     2118     14.40   75.18
     2119     14.40   74.98
     2120     14.43   74.50
     2121     14.48   74.16
     2122     14.54   74.07
     2123     14.55   73.94
     2124     14.52   73.91
     2125     14.51   73.87
     2126     14.50   73.65
     2127     14.43   73.26
     2128     14.40   72.85
     2129     14.44   72.37
     2130     14.48   71.74
     2131     14.53   71.43
     2132     14.57   70.86
     2133     14.59   70.34
     2134     14.57   69.68
     2135     14.57   68.86
     2136     14.58   68.00
     2137     14.62   66.95
     2138     14.72   66.24
     2139     14.82   65.52
     2140     14.89   64.83
     2141     14.95   64.38
     2142     14.98   63.89
     2143     14.97   63.95
     2144     14.94   63.91
     2145     14.91   63.42
     2146     14.90   63.15
     2147     14.88   63.04
     2148     14.83   62.74
     2149     14.78   62.43
     2150     14.73   62.42
     2151     14.73   62.71
     2152     14.78   63.02
     2153     14.82   63.13
     2154     14.83   63.13
     2155     14.82   62.87
     2156     14.74   62.73
     2157     14.74   62.46
     2158     14.64   61.62
     2159     14.53   61.14
     2160     14.50   59.67
     2161     14.48   58.23
     2162     14.50   57.91
     2163     14.39   57.64
     2164     14.23   57.02
     2165     14.17   56.50
     2166     14.20   55.75
     2167     14.30   55.58
     2168     14.38   55.30
     2169     14.39   54.94
     2170     14.39   54.75
     2171     14.40   54.41
     2172     14.45   53.92
     2173     14.49   53.49
     2174     14.56   52.90
     2175     14.68   52.56
     2176     14.79   52.43
     2177     14.85   52.61
     2178     14.85   52.73
     2179     14.83   52.11
     2180     14.87   51.71
     2181     14.92   50.77
     2182     14.97   49.79
     2183     15.06   49.20
     2184     15.12   48.17
     2185     15.19   47.60
     2186     15.31   46.95
     2187     15.43   46.00
     2188     15.51   45.53
     2189     15.55   44.95
     2190     15.57   44.37
     2191     15.60   43.95
     2192     15.67   43.52
     2193     15.66   43.43
     2194     15.64   43.34
     2195     15.62   42.94
     2196     15.61   42.73
     2197     15.64   42.39
     2198     15.66   42.18
     2199     15.71   42.37
     2200     15.71   42.15
     2201     15.74   41.90
     2202     15.80   41.62
     2203     15.85   41.43
     2204     15.91   41.19
     2205     15.95   40.92
     2206     16.07   40.60
     2207     16.15   39.88
     2208     16.51   39.55
     2209     16.59   38.87
     2210     16.76   38.08
     2211     16.90   37.39
     2212     16.82   37.24
     2213     16.88   36.83
     2214     16.96   37.04
     2215     17.14   36.74
     2216     17.19   36.20
     2217     17.12   35.80
     2218     17.20   35.70
     2219     17.10   35.83
     2220     17.06   35.88
     2221     17.14   35.81
     2222     17.28   36.02
     2223     17.31   35.95
     2224     17.23   35.57
     2225     17.16   35.25
     2226     17.10   34.95
     2227     17.19   35.18
     2228     17.24   35.08
     2229     17.25   34.40
     2230     17.37   34.01
     2231     17.42   33.77
     2232     17.53   33.35
     2233     17.83   32.46
     2234     17.73   31.98
     2235     17.54   31.68
     2236     17.73   31.53
     2237     17.75   30.77
     2238     17.70   29.90
     2239     17.75   29.82
     2240     17.80   29.63
     2241     17.83   29.19
     2242     17.99   28.85
     2243     17.99   28.63
     2244     17.98   28.76
     2245     17.92   28.47
     2246     17.84   28.46
     2247     17.92   28.49
     2248     17.92   28.46
     2249     17.90   28.30
     2250     17.86   28.26
     2251     17.85   28.11
     2252     17.99   26.90
     2253     17.97   27.89
     2254     18.14   27.13
     2255     18.05   27.47
     2256     18.16   26.97
     2257     18.12   26.40
     2258     18.19   26.00
     2259     18.32   25.43
     2260     18.43   24.72
     2261     18.40   24.06
     2262     18.67   23.79
     2263     18.70   23.52
     2264     18.79   23.05
     2265     18.80   23.41
     2266     18.80   23.76
     2267     18.95   22.53
     2268     19.08   23.04
     2269     19.16   22.77
     2270     19.20   22.34
     2271     19.19   22.50
     2272     19.25   21.93
     2273     19.25   22.04
     2274     19.27   22.05
     2275     19.34   21.88
     2276     19.40   22.05
     2277     19.42   21.69
     2278     19.51   21.56
     2279     19.58   21.64
     2280     19.70   21.43
     2281     19.82   21.31
     2282     19.88   21.53
     2283     20.11   20.76
     2284     20.28   21.33
     2285     20.41   20.90
     2286     20.50   20.57
     2287     20.59   20.67
     2288     20.72   20.03
