~VERSION INFORMATION
VERS.                    2.0:  —“¿Õƒ¿–“ LAS -¬≈–—»ﬂ 2.0
WRAP.                    NO:  ŒƒÕ¿ —“–Œ ¿ Õ¿  ¿∆ƒ”ﬁ “Œ◊ ” √À”¡»Õ€
~WELL INFORMATION BLOCK
#Œ¡«Õ.≈ƒ»«Ã   ƒ¿ÕÕ€≈                                       Œœ»—¿Õ»≈ Œ¡Œ«Õ¿◊≈Õ»ﬂ

#-----------  ---------                                     ---------------------

STRT.M           9.00                                       : “Œ◊ ¿ —“¿–“¿
STOP.M        2537.00                                   : “Œ◊ ¿ Œ—“¿ÕŒ¬¿
STEP.M           1.00                                       : Õ≈œ–≈–€¬Õ€… «¿Ã≈–
NULL.         999.25                                        : Õ≈“ œ≈–≈Ã≈ÕÕŒ…
COMP.                                                       : «¿ ¿«◊» 
FLD .         ¡ÓÎ¸¯ÓÂ                                       : Ã≈—“Œ–Œ∆ƒ≈Õ»≈
LOC .         1                                             :  ”—“
WELL.         1234                                          : — ¬¿∆»Õ¿
DATA.         11.7.2010„.                                   : ƒ¿“¿
TIME.         23:01:19                                      : ¬–≈Ãﬂ
~CURVE INFORMATION
#Œ¡«Õ.≈ƒ»«Ã             Œƒ                                 Œœ»—¿Õ»≈ œ≈–≈Ã≈ÕÕŒ…

#-----------  ---------                                     ---------------------

DEPTH.M                                                     : 1 √À”¡»Õ¿
ZENIT.√–¿ƒ                                                  : 3 «≈Õ»“
AZIMUTH.√–¿ƒ                                                : 4 ¿«»Ã”“
~PARAMETER INFORMATION
#Œ¡«Õ.≈ƒ»«Ã   ƒ¿ÕÕ€≈                                       Œœ»—¿Õ»≈ œ≈–≈Ã≈ÕÕŒ…

#-----------  ---------                                     ---------------------

DIAM.M                                                      : ƒ»¿Ã≈“– — ¬¿∆»Õ€
GLKN.M                                                      : √À”¡  ŒÕƒ” “Œ–¿
UGSK.√–¿ƒ                                                   : ”√ŒÀ — ÀŒÕ≈Õ»ﬂ
NPRT.         «ÂÎÂÌ˚È ¿.¿.                                  : Õ¿◊ œ¿–“»»
~A DEPTH    ZENIT  AZIMUTH
# ...
     2289     20.78   20.48
     2290     20.90   20.03
     2291     20.92   20.11
     2292     20.99   20.21
     2293     20.90   20.17
     2294     20.85   20.10
     2295     20.90   19.95
     2296     20.81   19.82
     2297     20.90   19.61
     2298     20.82   19.29
     2299     20.88   19.00
     2300     20.89   19.09
     2301     20.86   19.35
     2302     20.87   19.24
     2303     20.85   19.37
     2304     20.92   19.43
     2305     20.95   19.51
     2306     21.00   19.45
     2307     21.15   19.22
     2308     21.24   19.33
     2309     21.36   19.08
     2310     21.42   19.02
     2311     21.50   18.98
     2312     21.60   18.91
     2313     21.67   18.71
     2314     21.72   18.20
     2315     21.70   18.36
     2316     21.83   18.13
     2317     21.78   18.32
     2318     21.94   17.88
     2319     21.98   17.96
     2320     22.05   17.66
     2321     22.07   17.55
     2322     22.04   17.21
     2323     22.04   16.80
     2324     22.20   16.60
     2325     22.27   16.41
     2326     22.39   16.27
     2327     22.57   16.18
     2328     22.58   16.23
     2329     22.69   16.13
     2330     22.88   15.89
     2331     23.11   15.75
     2332     23.45   15.50
     2333     23.67   15.36
     2334     23.94   15.14
     2335     24.20   15.18
     2336     24.38   14.92
     2337     24.72   14.93
     2338     24.84   14.93
     2339     24.91   14.79
     2340     25.18   14.49
     2341     25.21   14.67
     2342     25.44   14.46
     2343     25.50   14.53
     2344     25.51   14.68
     2345     25.71   14.50
     2346     25.77   14.83
     2347     25.97   14.88
     2348     26.09   14.85
     2349     26.09   14.77
     2350     26.14   14.53
     2351     26.21   14.66
     2352     26.30   14.58
     2353     26.43   14.37
     2354     26.57   14.16
     2355     26.67   14.05
     2356     26.78   14.00
     2357     26.86   13.81
     2358     26.97   13.59
     2359     27.21   13.56
     2360     27.32   13.41
     2361     27.47   13.43
     2362     27.61   13.53
     2363     27.61   13.46
     2364     27.65   13.48
     2365     27.72   13.49
     2366     27.75   13.46
     2367     27.66   13.31
     2368     27.74   13.17
     2369     27.78   13.03
     2370     27.81   13.01
     2371     27.84   13.00
     2372     27.97   13.08
     2373     28.03   12.85
     2374     28.10   12.63
     2375     28.06   12.65
     2376     27.98   12.56
     2377     28.14   11.99
     2378     28.11   11.67
     2379     28.32   11.50
     2380     28.46   10.82
     2381     28.62   10.60
     2382     28.81    9.95
     2383     28.89    9.53
     2384     29.07    9.13
     2385     29.27    8.67
     2386     29.44    8.40
     2387     29.65    8.15
     2388     29.73    7.70
     2389     29.88    7.69
     2390     29.88    7.52
     2391     29.90    7.16
     2392     29.91    7.20
     2393     30.02    6.95
     2394     30.13    6.78
     2395     29.98    6.61
     2396     30.09    6.53
     2397     30.11    6.89
     2398     30.18    6.99
     2399     30.32    6.56
     2400     30.21    6.35
     2401     30.36    6.32
     2402     30.27    6.21
     2403     30.34    5.99
     2404     30.29    5.79
     2405     30.44    5.39
     2406     30.60    4.90
     2407     30.75    4.71
     2408     30.97    4.43
     2409     31.09    4.10
     2410     31.19    3.80
     2411     31.33    3.46
     2412     31.34    3.38
     2413     31.64    3.05
     2414     31.61    2.79
     2415     31.70    2.58
     2416     31.86    2.49
     2417     31.66    2.72
     2418     31.75    2.51
     2419     31.80    2.51
     2420     31.89    2.49
     2421     32.06    2.29
     2422     32.03    2.35
     2423     32.06    2.46
     2424     32.13    2.41
     2425     32.19    2.28
     2426     32.25    2.19
     2427     32.37    2.19
     2428     32.48    2.05
     2429     32.64    2.16
     2430     32.76    2.00
     2431     33.02    2.10
     2432     33.09    1.88
     2433     33.38    2.19
     2434     33.50    2.02
     2435     33.62    1.92
     2436     33.75    1.91
     2437     33.90    2.03
     2438     34.04    1.96
     2439     34.18    1.94
     2440     34.28    1.91
     2441     34.45    1.90
     2442     34.56    1.88
     2443     34.83    1.87
     2444     34.57    1.77
     2445     34.66    1.70
     2446     34.74    1.68
     2447     34.76    1.69
     2448     34.70    1.69
     2449     34.78    1.61
     2450     34.73    1.55
     2451     34.71    1.47
     2452     34.79    1.37
     2453     34.79    1.38
     2454     35.09    1.29
     2455     35.15    1.19
     2456     35.43    1.11
     2457     35.55    1.14
     2458     35.87    1.05
     2459     36.00    1.00
     2460     36.16    1.04
     2461     36.50    1.13
     2462     36.54    1.16
     2463     36.79    1.10
     2464     36.93    1.16
     2465     36.92    1.35
     2466     36.97    1.50
     2467     37.03    1.58
     2468     37.10    1.60
     2469     37.19    1.58
     2470     37.21    1.61
     2471     37.32    1.69
     2472     37.25    1.63
     2473     37.39    1.67
     2474     37.42    1.49
     2475     37.33    1.54
     2476     37.45    1.51
     2477     37.41    1.38
     2478     37.50    1.31
     2479     37.62    1.25
     2480     37.67    1.04
     2481     37.88    1.01
     2482     37.96    0.73
     2483     38.14    0.46
     2484     38.34    0.19
     2485     38.51  359.94
     2486     38.72  359.74
     2487     38.91  359.61
     2488     39.00  359.52
     2489     39.07  359.45
     2490     39.22  359.37
     2491     39.35  359.17
     2492     39.43  358.99
     2493     39.49  358.88
     2494     39.56  358.89
     2495     39.50  358.71
     2496     39.58  358.86
     2497     39.61  358.94
     2498     39.38  358.89
     2499     39.49  358.70
     2500     39.49  358.77
     2501     39.46  358.90
     2502     39.60  358.76
     2503     39.73  358.92
     2504     39.90  358.94
     2505     40.10  358.79
     2506     40.32  358.67
     2507     40.47  358.70
     2508     40.73  358.55
     2509     40.95  358.50
     2510     41.31  358.38
     2511     41.49  358.30
     2512     41.74  358.37
     2513     41.97  358.20
     2514     41.97  358.15
     2515     42.16  357.97
     2516     42.28  357.90
     2517     42.36  357.90
     2518     42.52  357.85
     2519     42.46  357.85
     2520     42.43  357.93
     2521     42.42  358.04
     2522     42.42  358.12
     2523     42.50  358.25
     2524     42.59  358.32
     2525     42.67  358.33
     2526     42.71  358.25
     2527     42.84  358.21
     2528     42.80  358.04
     2529     42.89  358.05
     2530     42.94  357.66
     2531     43.07  357.96
     2532     43.33  357.35
     2533     43.30  357.34
     2534     43.67  357.35
     2535     43.75  357.13
     2536     43.93  356.94
     2537     44.09  356.79
