~VERSION INFORMATION
VERS.                    2.0:  —“¿Õƒ¿–“ LAS -¬≈–—»ﬂ 2.0
WRAP.                    NO:  ŒƒÕ¿ —“–Œ ¿ Õ¿  ¿∆ƒ”ﬁ “Œ◊ ” √À”¡»Õ€
~WELL INFORMATION BLOCK
#Œ¡«Õ.≈ƒ»«Ã   ƒ¿ÕÕ€≈                                       Œœ»—¿Õ»≈ Œ¡Œ«Õ¿◊≈Õ»ﬂ

#-----------  ---------                                     ---------------------

STRT.M           9.00                                       : “Œ◊ ¿ —“¿–“¿
STOP.M        2537.00                                   : “Œ◊ ¿ Œ—“¿ÕŒ¬¿
STEP.M           1.00                                       : Õ≈œ–≈–€¬Õ€… «¿Ã≈–
NULL.         999.25                                        : Õ≈“ œ≈–≈Ã≈ÕÕŒ…
COMP.                                                       : «¿ ¿«◊» 
FLD .         ¡ÓÎ¸¯ÓÂ                                       : Ã≈—“Œ–Œ∆ƒ≈Õ»≈
LOC .         1                                             :  ”—“
WELL.         1234                                          : — ¬¿∆»Õ¿
DATA.         11.7.2010„.                                   : ƒ¿“¿
TIME.         23:01:19                                      : ¬–≈Ãﬂ
~CURVE INFORMATION
#Œ¡«Õ.≈ƒ»«Ã             Œƒ                                 Œœ»—¿Õ»≈ œ≈–≈Ã≈ÕÕŒ…

#-----------  ---------                                     ---------------------

DEPTH.M                                                     : 1 √À”¡»Õ¿
ZENIT.√–¿ƒ                                                  : 3 «≈Õ»“
AZIMUTH.√–¿ƒ                                                : 4 ¿«»Ã”“
~PARAMETER INFORMATION
#Œ¡«Õ.≈ƒ»«Ã   ƒ¿ÕÕ€≈                                       Œœ»—¿Õ»≈ œ≈–≈Ã≈ÕÕŒ…

#-----------  ---------                                     ---------------------

DIAM.M                                                      : ƒ»¿Ã≈“– — ¬¿∆»Õ€
GLKN.M                                                      : √À”¡  ŒÕƒ” “Œ–¿
UGSK.√–¿ƒ                                                   : ”√ŒÀ — ÀŒÕ≈Õ»ﬂ
NPRT.         «ÂÎÂÌ˚È ¿.¿.                                  : Õ¿◊ œ¿–“»»
~A DEPTH    ZENIT  AZIMUTH
# ...
     1717     15.08   95.78
     1718     15.11   95.75
     1719     15.13   95.81
     1720     15.15   95.78
     1721     15.18   95.71
     1722     15.20   95.69
     1723     15.22   95.61
     1724     15.26   95.72
     1725     15.25   95.78
     1726     15.25   95.85
     1727     15.25   95.95
     1728     15.29   95.59
     1729     15.31   95.34
     1730     15.32   95.64
     1731     15.33   95.91
     1732     15.36   95.89
     1733     15.32   95.61
     1734     15.36   95.48
     1735     15.37   95.39
     1736     15.34   95.35
     1737     15.37   95.37
     1738     15.40   95.37
     1739     15.40   95.37
     1740     15.40   95.34
     1741     15.40   95.28
     1742     15.40   95.27
     1743     15.43   95.37
     1744     15.43   95.39
     1745     15.42   95.32
     1746     15.44   95.33
     1747     15.46   95.17
     1748     15.45   95.22
     1749     15.45   95.31
     1750     15.39   95.28
     1751     15.39   95.23
     1752     15.38   95.16
     1753     15.42   95.23
     1754     15.41   95.09
     1755     15.43   95.17
     1756     15.44   95.24
     1757     15.44   95.42
     1758     15.43   95.47
     1759     15.37   95.34
     1760     15.38   95.32
     1761     15.39   95.24
     1762     15.38   95.18
     1763     15.41   95.24
     1764     15.43   95.19
     1765     15.46   95.06
     1766     15.42   95.06
     1767     15.43   95.23
     1768     15.46   95.18
     1769     15.31   95.13
     1770     15.26   95.11
     1771     15.26   95.11
     1772     15.26   95.08
     1773     15.31   95.07
     1774     15.33   95.08
     1775     15.36   95.10
     1776     15.34   95.16
     1777     15.24   95.17
     1778     15.32   95.06
     1779     15.37   94.93
     1780     15.36   94.88
     1781     15.34   95.18
     1782     15.17   95.25
     1783     15.14   95.25
     1784     15.02   95.01
     1785     14.96   94.78
     1786     14.90   94.71
     1787     14.88   95.16
     1788     14.92   95.41
     1789     14.97   95.40
     1790     14.98   95.27
     1791     15.02   94.98
     1792     15.00   94.95
     1793     14.91   95.10
     1794     14.86   94.89
     1795     14.83   95.02
     1796     14.80   94.92
     1797     14.80   95.06
     1798     14.80   95.07
     1799     14.79   95.04
     1800     14.77   94.96
     1801     14.73   94.96
     1802     14.70   94.92
     1803     14.65   94.97
     1804     14.56   95.08
     1805     14.51   95.28
     1806     14.53   95.59
     1807     14.54   95.65
     1808     14.50   95.49
     1809     14.46   95.46
     1810     14.44   95.47
     1811     14.42   95.49
     1812     14.41   95.70
     1813     14.44   95.80
     1814     14.40   95.49
     1815     14.39   95.49
     1816     14.37   95.55
     1817     14.36   95.64
     1818     14.30   95.52
     1819     14.26   95.58
     1820     14.28   95.30
     1821     14.31   95.11
     1822     14.30   95.18
     1823     14.25   95.29
     1824     14.20   95.29
     1825     14.19   95.24
     1826     14.19   95.19
     1827     14.17   94.98
     1828     14.16   95.04
     1829     14.17   95.09
     1830     14.16   95.11
     1831     14.19   94.79
     1832     14.12   94.87
     1833     14.00   95.05
     1834     14.02   94.92
     1835     13.95   94.90
     1836     13.88   94.90
     1837     13.88   95.02
     1838     13.88   95.34
     1839     13.89   95.32
     1840     13.88   95.41
     1841     13.92   95.32
     1842     13.97   95.20
     1843     14.00   95.08
     1844     13.98   94.91
     1845     13.95   94.82
     1846     13.93   94.64
     1847     13.91   94.60
     1848     13.87   94.55
     1849     13.90   94.64
     1850     13.84   94.64
     1851     13.80   94.66
     1852     13.75   94.60
     1853     13.70   94.46
     1854     13.68   94.42
     1855     13.68   94.32
     1856     13.69   94.23
     1857     13.69   94.05
     1858     13.66   94.06
     1859     13.59   94.14
     1860     13.56   94.37
     1861     13.58   94.55
     1862     13.63   94.78
     1863     13.69   94.68
     1864     13.67   94.74
     1865     13.63   94.99
     1866     13.67   94.85
     1867     13.73   94.79
     1868     13.74   94.66
     1869     13.70   94.75
     1870     13.71   94.77
     1871     13.74   94.56
     1872     13.73   94.50
     1873     13.70   94.55
     1874     13.68   94.58
     1875     13.63   94.63
     1876     13.57   94.66
     1877     13.59   94.66
     1878     13.53   94.62
     1879     13.57   94.50
     1880     13.56   94.38
     1881     13.61   94.32
     1882     13.63   94.39
     1883     13.70   94.23
     1884     13.76   94.20
     1885     13.90   94.06
     1886     14.02   93.95
     1887     14.17   94.01
     1888     14.32   93.88
     1889     14.47   93.71
     1890     14.59   93.68
     1891     14.68   93.50
     1892     14.72   93.19
     1893     14.73   92.96
     1894     14.75   93.04
     1895     14.75   93.31
     1896     14.73   93.49
     1897     14.81   93.81
     1898     14.85   93.45
     1899     14.82   93.44
     1900     14.80   93.92
     1901     14.77   93.63
     1902     14.83   93.55
     1903     14.85   92.78
     1904     14.83   92.94
     1905     14.78   93.05
     1906     14.76   92.66
     1907     14.81   92.52
     1908     14.87   92.60
     1909     14.85   92.52
     1910     14.83   92.48
     1911     14.82   92.51
     1912     14.67   92.43
     1913     14.57   92.43
     1914     14.58   92.51
     1915     14.59   92.52
     1916     14.58   92.57
     1917     14.53   92.45
     1918     14.45   92.38
     1919     14.46   92.32
     1920     14.46   92.37
     1921     14.43   92.36
     1922     14.41   92.31
     1923     14.34   92.34
     1924     14.27   92.47
     1925     14.20   92.27
     1926     14.15   92.26
     1927     14.10   91.83
     1928     14.07   91.68
     1929     14.15   91.45
     1930     14.19   91.32
     1931     14.22   91.49
     1932     14.33   91.63
     1933     14.59   91.33
     1934     14.59   91.26
     1935     15.02   90.47
     1936     15.26   90.58
     1937     15.41   90.54
     1938     15.63   90.40
     1939     15.83   90.42
     1940     15.99   90.36
     1941     16.10   90.23
     1942     16.16   90.17
     1943     16.21   90.00
     1944     16.27   89.96
     1945     16.36   90.02
     1946     16.44   89.87
     1947     16.55   89.79
     1948     16.59   89.58
     1949     16.61   89.58
     1950     16.64   89.46
     1951     16.67   89.40
     1952     16.71   89.40
     1953     16.76   89.38
     1954     16.77   89.41
     1955     16.74   89.29
     1956     16.79   89.16
     1957     16.76   89.15
     1958     16.80   89.17
     1959     16.78   89.15
     1960     16.75   89.00
     1961     16.74   89.02
     1962     16.71   89.04
     1963     16.70   88.91
     1964     16.67   88.71
     1965     16.67   88.74
     1966     16.69   88.55
     1967     16.73   88.43
     1968     16.70   88.51
     1969     16.73   88.54
     1970     16.74   88.48
     1971     16.74   88.55
     1972     16.73   88.58
     1973     16.73   88.50
     1974     16.76   88.37
     1975     16.78   88.30
     1976     16.73   88.37
     1977     16.65   88.39
     1978     16.59   88.48
     1979     16.61   88.70
     1980     16.67   88.73
     1981     16.68   88.73
     1982     16.74   88.76
     1983     16.79   88.58
     1984     16.79   88.44
     1985     16.78   88.23
     1986     16.80   88.05
     1987     16.81   87.99
     1988     16.78   87.91
     1989     16.79   87.89
     1990     16.82   87.93
     1991     16.87   87.92
     1992     16.89   87.86
     1993     16.87   87.82
     1994     16.85   87.76
     1995     16.88   87.71
     1996     16.91   87.59
     1997     16.97   87.59
     1998     17.03   87.72
     1999     17.04   87.77
     2000     17.02   87.82
     2001     16.98   87.88
     2002     16.97   87.84
