~VERSION INFORMATION
VERS.                    2.0:  —“¿Õƒ¿–“ LAS -¬≈–—»ﬂ 2.0
WRAP.                    NO:  ŒƒÕ¿ —“–Œ ¿ Õ¿  ¿∆ƒ”ﬁ “Œ◊ ” √À”¡»Õ€
~WELL INFORMATION BLOCK
#Œ¡«Õ.≈ƒ»«Ã   ƒ¿ÕÕ€≈                                       Œœ»—¿Õ»≈ Œ¡Œ«Õ¿◊≈Õ»ﬂ

#-----------  ---------                                     ---------------------

STRT.M           9.00                                       : “Œ◊ ¿ —“¿–“¿
STOP.M        2537.00                                   : “Œ◊ ¿ Œ—“¿ÕŒ¬¿
STEP.M           1.00                                       : Õ≈œ–≈–€¬Õ€… «¿Ã≈–
NULL.         999.25                                        : Õ≈“ œ≈–≈Ã≈ÕÕŒ…
COMP.                                                       : «¿ ¿«◊» 
FLD .         ¡ÓÎ¸¯ÓÂ                                       : Ã≈—“Œ–Œ∆ƒ≈Õ»≈
LOC .         1                                             :  ”—“
WELL.         1234                                          : — ¬¿∆»Õ¿
DATA.         11.7.2010„.                                   : ƒ¿“¿
TIME.         23:01:19                                      : ¬–≈Ãﬂ
~CURVE INFORMATION
#Œ¡«Õ.≈ƒ»«Ã             Œƒ                                 Œœ»—¿Õ»≈ œ≈–≈Ã≈ÕÕŒ…

#-----------  ---------                                     ---------------------

DEPTH.M                                                     : 1 √À”¡»Õ¿
ZENIT.√–¿ƒ                                                  : 3 «≈Õ»“
AZIMUTH.√–¿ƒ                                                : 4 ¿«»Ã”“
~PARAMETER INFORMATION
#Œ¡«Õ.≈ƒ»«Ã   ƒ¿ÕÕ€≈                                       Œœ»—¿Õ»≈ œ≈–≈Ã≈ÕÕŒ…

#-----------  ---------                                     ---------------------

DIAM.M                                                      : ƒ»¿Ã≈“– — ¬¿∆»Õ€
GLKN.M                                                      : √À”¡  ŒÕƒ” “Œ–¿
UGSK.√–¿ƒ                                                   : ”√ŒÀ — ÀŒÕ≈Õ»ﬂ
NPRT.         «ÂÎÂÌ˚È ¿.¿.                                  : Õ¿◊ œ¿–“»»
~A DEPTH    ZENIT  AZIMUTH
        1      0.48   79.98
        2      0.23   81.60
        3      0.37   74.28
        4      0.42   62.76
        5      0.41   62.57
        6      0.46   54.04
        7      0.46   60.86
        8      0.50   49.21
        9      0.49   54.20
       10      0.50   54.12
       11      0.50   52.62
       12      0.48   50.42
       13      0.50   45.35
       14      0.55   44.84
       15      0.59   46.23
       16      0.57   45.77
       17      0.54   46.77
       18      0.54   45.84
       19      0.57   41.59
       20      0.59   42.79
       21      0.61   34.49
       22      0.62   37.89
       23      0.59   49.88
       24      0.60   55.59
       25      0.66   53.67
       26      0.71   56.30
       27      0.69   49.22
       28      0.53   50.63
       29      0.65   50.34
       30      0.81   49.78
       31      0.65   58.47
       32      0.66   52.78
       33      0.66   48.39
       34      0.69   50.17
       35      0.70   52.54
       36      0.64   50.27
       37      0.68   44.89
       38      0.65   49.41
       39      0.62   52.80
       40      0.60   51.99
       41      0.57   46.41
       42      0.62   48.34
       43      0.64   48.38
       44      0.65   46.19
       45      0.63   46.11
       46      0.60   48.02
       47      0.60   51.08
       48      0.65   46.30
       49      0.66   42.59
       50      0.63   40.55
       51      0.61   40.45
       52      0.65   40.92
       53      0.64   44.08
       54      0.64   46.15
       55      0.62   48.79
       56      0.61   51.36
       57      0.69   48.93
       58      0.69   46.90
       59      0.68   49.43
       60      0.69   52.20
       61      0.72   51.47
       62      0.70   46.99
       63      0.68   47.29
       64      0.66   47.12
       65      0.69   47.70
       66      0.74   48.75
       67      0.76   48.37
       68      0.80   51.25
       69      0.78   50.80
       70      0.74   49.18
       71      0.71   48.24
       72      0.72   49.96
       73      0.76   53.44
       74      0.78   55.35
       75      0.82   54.98
       76      0.87   52.86
       77      0.84   51.11
       78      0.85   50.53
       79      0.82   49.97
       80      0.80   49.30
       81      0.81   49.01
       82      0.84   50.67
       83      0.87   53.24
       84      0.88   53.03
       85      0.87   52.56
       86      0.85   51.31
       87      0.83   46.54
       88      0.78   46.86
       89      0.79   48.04
       90      0.83   48.65
       91      0.88   48.60
       92      0.98   49.45
       93      0.95   50.02
       94      0.87   49.85
       95      0.81   51.11
       96      0.83   51.74
       97      0.90   48.21
       98      0.80   48.53
       99      0.91   50.39
      100      0.96   49.13
      101      0.94   44.68
      102      0.92   39.85
      103      0.89   39.59
      104      0.89   42.60
      105      0.91   45.35
      106      0.94   46.59
      107      0.93   47.04
      108      0.90   47.54
      109      0.89   57.94
      110      0.90   59.37
      111      0.90   54.49
      112      0.87   54.01
      113      0.85   53.98
      114      0.85   52.36
      115      0.83   50.02
      116      0.84   48.56
      117      0.89   49.05
      118      0.87   49.97
      119      0.85   50.12
      120      0.88   49.57
      121      0.90   49.22
      122      0.88   49.51
      123      0.79   50.27
      124      0.76   48.82
      125      0.76   47.38
      126      0.75   46.99
      127      0.78   47.34
      128      0.75   48.34
      129      0.72   49.62
      130      0.70   52.25
      131      0.71   54.62
      132      0.73   54.75
      133      0.75   55.70
      134      0.78   55.99
      135      0.80   54.49
      136      0.81   52.04
      137      0.79   50.66
      138      0.72   50.72
      139      0.69   48.93
      140      0.71   47.60
      141      0.73   48.46
      142      0.72   51.82
      143      0.73   51.87
      144      0.71   52.57
      145      0.67   53.06
      146      0.64   52.41
      147      0.63   50.20
      148      0.66   51.90
      149      0.70   54.71
      150      0.70   58.65
      151      0.68   61.07
      152      0.69   59.44
      153      0.69   56.92
      154      0.68   56.99
      155      0.68   57.23
      156      0.69   56.97
      157      0.67   57.25
      158      0.64   59.57
      159      0.64   60.78
      160      0.66   60.56
      161      0.69   59.34
      162      0.69   58.21
      163      0.67   59.02
      164      0.64   57.73
      165      0.64   56.26
      166      0.65   55.88
      167      0.63   57.37
      168      0.63   60.18
      169      0.67   59.39
      170      0.73   56.78
      171      0.80   56.10
      172      0.83   59.55
      173      0.81   60.36
      174      0.82   61.25
      175      0.86   60.34
      176      0.89   58.20
      177      0.89   56.23
      178      0.88   57.14
      179      0.86   54.16
      180      0.84   52.07
      181      0.81   51.91
      182      0.79   53.29
      183      0.88   53.28
      184      0.87   52.92
      185      0.87   52.62
      186      0.88   52.73
      187      0.89   53.06
      188      0.91   52.86
      189      0.91   53.06
      190      0.95   52.50
      191      0.95   52.56
      192      0.92   53.11
      193      0.93   53.03
      194      0.90   50.86
      195      0.92   49.76
      196      0.92   46.67
      197      0.92   42.15
      198      0.92   37.91
      199      0.90   36.30
      200      0.93   37.15
      201      0.95   37.98
      202      0.95   39.80
      203      0.94   42.09
      204      0.91   43.18
      205      0.91   43.61
      206      0.91   41.67
      207      0.90   40.32
      208      0.89   39.63
      209      0.89   39.07
      210      0.88   40.56
      211      0.94   41.33
      212      0.93   41.30
      213      0.89   42.27
      214      0.87   44.24
      215      0.89   45.00
      216      0.92   44.60
      217      0.84   43.19
      218      0.82   41.51
      219      0.78   41.29
      220      0.82   41.45
      221      0.88   42.41
      222      0.88   44.51
      223      0.88   45.00
      224      0.87   44.53
      225      0.89   44.37
      226      0.94   43.82
      227      0.98   41.20
      228      1.07   40.02
      229      1.19   40.85
      230      1.28   41.23
      231      1.33   41.73
      232      1.35   43.25
      233      1.37   42.03
      234      1.45   41.72
      235      1.51   41.44
      236      1.54   41.78
      237      1.55   42.91
      238      1.58   43.47
      239      1.61   42.51
      240      1.61   42.07
      241      1.65   42.42
      242      1.72   43.15
      243      1.71   43.37
      244      1.86   42.78
      245      1.90   42.79
      246      1.91   42.70
      247      1.92   41.84
      248      1.97   41.78
      249      1.98   41.86
      250      2.01   41.69
      251      2.09   41.70
      252      2.21   42.22
      253      2.27   42.08
      254      2.33   41.77
      255      2.36   41.75
      256      2.38   41.47
      257      2.48   40.02
      258      2.51   39.87
      259      2.59   40.14
      260      2.60   39.87
      261      2.61   39.21
      262      2.72   38.61
      263      2.73   38.02
      264      2.82   37.24
      265      2.94   36.91
      266      3.08   36.93
      267      3.24   36.72
      268      3.31   36.62
      269      3.36   36.70
      270      3.36   36.42
      271      3.36   35.97
      272      3.40   35.74
      273      3.40   35.63
      274      3.45   35.65
      275      3.52   35.41
      276      3.59   35.06
      277      3.66   35.15
      278      3.69   35.15
      279      3.73   35.22
      280      3.76   35.23
      281      3.77   35.24
      282      3.77   35.22
      283      3.77   34.53
      284      3.83   34.98
      285      3.84   34.90
      286      3.87   34.72
