~VERSION INFORMATION
VERS.                    2.0:  —“¿Õƒ¿–“ LAS -¬≈–—»ﬂ 2.0
WRAP.                    NO:  ŒƒÕ¿ —“–Œ ¿ Õ¿  ¿∆ƒ”ﬁ “Œ◊ ” √À”¡»Õ€
~WELL INFORMATION BLOCK
#Œ¡«Õ.≈ƒ»«Ã   ƒ¿ÕÕ€≈                                       Œœ»—¿Õ»≈ Œ¡Œ«Õ¿◊≈Õ»ﬂ

#-----------  ---------                                     ---------------------

STRT.M           9.00                                       : “Œ◊ ¿ —“¿–“¿
STOP.M        2537.00                                   : “Œ◊ ¿ Œ—“¿ÕŒ¬¿
STEP.M           1.00                                       : Õ≈œ–≈–€¬Õ€… «¿Ã≈–
NULL.         999.25                                        : Õ≈“ œ≈–≈Ã≈ÕÕŒ…
COMP.                                                       : «¿ ¿«◊» 
FLD .         ¡ÓÎ¸¯ÓÂ                                       : Ã≈—“Œ–Œ∆ƒ≈Õ»≈
LOC .         1                                             :  ”—“
WELL.         1234                                          : — ¬¿∆»Õ¿
DATA.         11.7.2010„.                                   : ƒ¿“¿
TIME.         23:01:19                                      : ¬–≈Ãﬂ
~CURVE INFORMATION
#Œ¡«Õ.≈ƒ»«Ã             Œƒ                                 Œœ»—¿Õ»≈ œ≈–≈Ã≈ÕÕŒ…

#-----------  ---------                                     ---------------------

DEPTH.M                                                     : 1 √À”¡»Õ¿
ZENIT.√–¿ƒ                                                  : 3 «≈Õ»“
AZIMUTH.√–¿ƒ                                                : 4 ¿«»Ã”“
~PARAMETER INFORMATION
#Œ¡«Õ.≈ƒ»«Ã   ƒ¿ÕÕ€≈                                       Œœ»—¿Õ»≈ œ≈–≈Ã≈ÕÕŒ…

#-----------  ---------                                     ---------------------

DIAM.M                                                      : ƒ»¿Ã≈“– — ¬¿∆»Õ€
GLKN.M                                                      : √À”¡  ŒÕƒ” “Œ–¿
UGSK.√–¿ƒ                                                   : ”√ŒÀ — ÀŒÕ≈Õ»ﬂ
NPRT.         «ÂÎÂÌ˚È ¿.¿.                                  : Õ¿◊ œ¿–“»»
~A DEPTH    ZENIT  AZIMUTH
# ...
      287      3.96   34.82
      288      4.06   34.56
      289      4.16   35.32
      290      4.22   35.51
      291      4.27   35.63
      292      4.34   35.87
      293      4.39   35.93
      294      4.46   35.80
      295      4.46   36.00
      296      4.48   36.34
      297      4.55   36.58
      298      4.57   36.54
      299      4.74   36.61
      300      4.69   36.88
      301      4.68   37.16
      302      4.80   37.34
      303      4.92   37.46
      304      4.97   37.97
      305      5.01   37.85
      306      5.03   37.56
      307      5.08   37.59
      308      5.19   38.25
      309      5.24   38.17
      310      5.33   38.15
      311      5.38   38.24
      312      5.52   38.16
      313      5.81   37.93
      314      5.96   37.96
      315      6.08   38.29
      316      6.16   38.55
      317      6.19   38.22
      318      6.24   37.98
      319      6.28   37.70
      320      6.31   37.45
      321      6.34   37.25
      322      6.36   37.21
      323      6.38   37.43
      324      6.46   37.60
      325      6.55   37.60
      326      6.60   37.52
      327      6.58   37.50
      328      6.60   37.21
      329      6.67   37.27
      330      6.71   37.08
      331      6.61   37.24
      332      6.63   37.21
      333      6.74   37.64
      334      6.85   37.64
      335      6.94   37.38
      336      7.01   37.34
      337      7.07   37.80
      338      7.13   38.04
      339      7.19   37.94
      340      7.20   37.63
      341      7.18   37.74
      342      7.16   38.17
      343      7.20   38.25
      344      7.28   38.17
      345      7.27   37.77
      346      7.27   38.03
      347      7.28   38.68
      348      7.32   39.19
      349      7.37   39.08
      350      7.37   39.02
      351      7.43   39.68
      352      7.48   39.99
      353      7.51   40.01
      354      7.57   40.25
      355      7.65   40.53
      356      7.71   40.80
      357      7.76   41.07
      358      7.92   41.33
      359      8.00   41.56
      360      8.09   41.59
      361      8.15   41.57
      362      8.18   41.59
      363      8.22   41.67
      364      8.26   41.63
      365      8.27   41.42
      366      8.30   41.45
      367      8.34   41.69
      368      8.40   41.91
      369      8.44   41.81
      370      8.47   41.69
      371      8.51   41.68
      372      8.58   41.68
      373      8.59   41.72
      374      8.57   41.80
      375      8.61   41.67
      376      8.68   41.54
      377      8.75   41.63
      378      8.78   41.75
      379      8.78   41.96
      380      8.85   42.06
      381      8.89   41.99
      382      8.91   41.90
      383      8.97   42.04
      384      9.07   42.01
      385      9.19   42.11
      386      9.31   42.23
      387      9.42   42.24
      388      9.46   42.42
      389      9.52   42.62
      390      9.55   42.80
      391      9.59   42.89
      392      9.66   42.93
      393      9.72   42.82
      394      9.80   42.77
      395      9.92   42.81
      396     10.01   42.95
      397     10.02   43.20
      398     10.08   42.97
      399     10.10   43.44
      400     10.14   43.46
      401     10.19   43.32
      402     10.23   43.35
      403     10.23   43.29
      404     10.29   43.67
      405     10.33   43.64
      406     10.36   43.61
      407     10.41   43.73
      408     10.49   43.93
      409     10.54   43.84
      410     10.62   44.45
      411     10.75   43.90
      412     10.84   43.61
      413     10.94   43.75
      414     10.98   43.95
      415     11.02   44.12
      416     11.10   44.25
      417     11.18   44.50
      418     11.19   44.44
      419     11.24   44.45
      420     11.28   44.49
      421     11.33   44.50
      422     11.39   44.45
      423     11.46   44.34
      424     11.47   44.34
      425     11.46   44.50
      426     11.46   44.59
      427     11.48   44.41
      428     11.48   44.23
      429     11.51   44.19
      430     11.53   44.24
      431     11.57   44.30
      432     11.59   44.43
      433     11.58   44.69
      434     11.67   44.67
      435     11.66   44.18
      436     11.71   44.02
      437     11.77   44.01
      438     11.79   43.99
      439     11.80   43.98
      440     11.77   43.80
      441     11.79   43.82
      442     11.81   43.86
      443     11.83   43.56
      444     11.89   43.56
      445     11.90   43.71
      446     11.88   43.76
      447     11.87   43.68
      448     11.87   43.54
      449     11.91   43.27
      450     11.91   43.26
      451     11.90   43.46
      452     11.89   43.63
      453     11.90   43.53
      454     11.88   43.37
      455     11.89   43.26
      456     11.89   43.22
      457     11.88   43.23
      458     11.96   43.33
      459     11.96   43.58
      460     11.94   43.36
      461     11.91   43.39
      462     11.89   43.78
      463     11.89   44.09
      464     11.91   44.08
      465     11.91   44.16
      466     11.93   44.30
      467     11.93   44.50
      468     11.89   44.74
      469     11.86   44.96
      470     11.89   45.10
      471     11.92   45.65
      472     11.95   45.76
      473     11.98   45.88
      474     11.98   46.14
      475     12.01   46.40
      476     12.06   46.63
      477     12.08   46.67
      478     12.09   46.79
      479     12.16   47.02
      480     12.10   47.19
      481     12.13   47.52
      482     12.22   47.89
      483     12.19   47.99
      484     12.21   48.46
      485     12.23   48.73
      486     12.27   48.99
      487     12.34   49.58
      488     12.44   50.08
      489     12.52   50.33
      490     12.68   50.61
      491     12.67   50.84
      492     12.59   51.18
      493     12.75   51.89
      494     12.82   52.40
      495     12.87   52.73
      496     12.92   52.73
      497     12.93   52.78
      498     12.90   53.11
      499     12.94   53.38
      500     12.97   53.80
      501     13.00   53.75
      502     12.97   53.41
      503     12.93   53.28
      504     12.92   53.74
      505     12.87   54.58
      506     12.97   55.38
      507     12.80   55.04
      508     12.75   55.44
      509     12.69   55.67
      510     12.69   56.34
      511     12.75   57.16
      512     12.76   56.84
      513     12.73   57.75
      514     12.69   58.29
      515     12.69   58.70
      516     12.64   59.48
      517     12.55   60.40
      518     12.61   60.10
      519     12.64   62.04
      520     12.64   61.98
      521     12.63   62.33
      522     12.63   62.87
      523     12.65   63.14
      524     12.66   63.57
      525     12.69   64.11
      526     12.76   64.86
      527     12.83   65.22
      528     12.86   65.27
      529     12.80   65.19
      530     12.71   65.55
      531     12.69   66.39
      532     12.71   67.05
      533     12.73   67.28
      534     12.76   67.56
      535     12.71   68.14
      536     12.74   68.83
      537     12.78   69.42
      538     12.83   69.78
      539     12.86   70.11
      540     12.90   70.78
      541     12.93   71.74
      542     12.94   71.78
      543     12.99   72.48
      544     13.02   72.38
      545     13.02   72.61
      546     13.01   73.07
      547     13.02   73.42
      548     13.05   73.83
      549     13.12   74.06
      550     13.11   74.11
      551     13.12   74.42
      552     13.11   74.51
      553     13.09   74.45
      554     13.11   74.90
      555     13.03   74.32
      556     12.99   75.32
      557     13.02   75.79
      558     13.09   76.14
      559     13.15   76.46
      560     13.13   76.46
      561     13.08   76.40
      562     13.06   76.92
      563     13.03   77.94
      564     13.08   78.45
      565     13.13   78.95
      566     13.15   79.23
      567     13.14   79.27
      568     13.13   79.76
      569     13.19   80.30
      570     13.23   80.38
      571     13.26   80.52
      572     13.26   80.68
